{
    "id": "2786",
    "ident": "FAGT",
    "type": "small_airport",
    "name": "Grahamstown Airport",
    "latitude_deg": "-33.284698486328125",
    "longitude_deg": "26.49810028076172",
    "elevation_ft": "2135",
    "continent": "AF",
    "iso_country": "ZA",
    "iso_region": "ZA-EC",
    "municipality": "Grahamstown",
    "scheduled_service": "no",
    "gps_code": "FAGT",
    "iata_code": "",
    "local_code": "",
    "home_link": "",
    "wikipedia_link": "",
    "keywords": "",
    "runways": [
        {
            "id": "238762",
            "airport_ref": "2786",
            "airport_ident": "FAGT",
            "length_ft": "3871",
            "width_ft": "131",
            "surface": "GRS",
            "lighted": "0",
            "closed": "0",
            "le_ident": "04",
            "le_latitude_deg": "-33.2901",
            "le_longitude_deg": "26.4944",
            "le_elevation_ft": "",
            "le_heading_degT": "20",
            "le_displaced_threshold_ft": "",
            "he_ident": "22",
            "he_latitude_deg": "-33.2802",
            "he_longitude_deg": "26.4987",
            "he_elevation_ft": "",
            "he_heading_degT": "200",
            "he_displaced_threshold_ft": ""
        },
        {
            "id": "238763",
            "airport_ref": "2786",
            "airport_ident": "FAGT",
            "length_ft": "2756",
            "width_ft": "131",
            "surface": "GRS",
            "lighted": "0",
            "closed": "0",
            "le_ident": "12",
            "le_latitude_deg": "-33.2857",
            "le_longitude_deg": "26.4909",
            "le_elevation_ft": "",
            "le_heading_degT": "100",
            "le_displaced_threshold_ft": "",
            "he_ident": "30",
            "he_latitude_deg": "-33.287",
            "he_longitude_deg": "26.4998",
            "he_elevation_ft": "",
            "he_heading_degT": "280",
            "he_displaced_threshold_ft": ""
        },
        {
            "id": "238764",
            "airport_ref": "2786",
            "airport_ident": "FAGT",
            "length_ft": "3937",
            "width_ft": "49",
            "surface": "ASP",
            "lighted": "0",
            "closed": "0",
            "le_ident": "16",
            "le_latitude_deg": "-33.2809",
            "le_longitude_deg": "26.4937",
            "le_elevation_ft": "",
            "le_heading_degT": "136",
            "le_displaced_threshold_ft": "",
            "he_ident": "34",
            "he_latitude_deg": "-33.2887",
            "he_longitude_deg": "26.5028",
            "he_elevation_ft": "",
            "he_heading_degT": "316",
            "he_displaced_threshold_ft": ""
        }
    ],
    "freqs": [
        {
            "id": "57079",
            "airport_ref": "2786",
            "airport_ident": "FAGT",
            "type": "RDO",
            "description": "RDO",
            "frequency_mhz": "123.5"
        }
    ],
    "country": {
        "id": "302610",
        "code": "ZA",
        "name": "South Africa",
        "continent": "AF",
        "wikipedia_link": "https://en.wikipedia.org/wiki/South_Africa",
        "keywords": ""
    },
    "region": {
        "id": "306295",
        "code": "ZA-EC",
        "local_code": "EC",
        "name": "Eastern Cape",
        "continent": "AF",
        "iso_country": "ZA",
        "wikipedia_link": "https://en.wikipedia.org/wiki/Eastern_Cape",
        "keywords": ""
    }
}