{
    "id": "26707",
    "ident": "VVTH",
    "type": "medium_airport",
    "name": "Dong Tac Airport",
    "latitude_deg": "13.049599647500001",
    "longitude_deg": "109.333999634",
    "elevation_ft": "20",
    "continent": "AS",
    "iso_country": "VN",
    "iso_region": "VN-49",
    "municipality": "Tuy Hoa",
    "scheduled_service": "yes",
    "gps_code": "VVTH",
    "iata_code": "TBB",
    "local_code": "",
    "home_link": "",
    "wikipedia_link": "https://en.wikipedia.org/wiki/%C4%90%C3%B4ng_T%C3%A1c_(Tuy_Hoa)_Airport",
    "keywords": "",
    "runways": [
        {
            "id": "246177",
            "airport_ref": "26707",
            "airport_ident": "VVTH",
            "length_ft": "2770",
            "width_ft": "90",
            "surface": "ASP",
            "lighted": "0",
            "closed": "0",
            "le_ident": "02",
            "le_latitude_deg": "13.0471",
            "le_longitude_deg": "109.331",
            "le_elevation_ft": "",
            "le_heading_degT": "31.6",
            "le_displaced_threshold_ft": "",
            "he_ident": "20",
            "he_latitude_deg": "13.054",
            "he_longitude_deg": "109.335",
            "he_elevation_ft": "",
            "he_heading_degT": "211.6",
            "he_displaced_threshold_ft": ""
        },
        {
            "id": "246179",
            "airport_ref": "26707",
            "airport_ident": "VVTH",
            "length_ft": "9520",
            "width_ft": "150",
            "surface": "CON",
            "lighted": "0",
            "closed": "0",
            "le_ident": "03L",
            "le_latitude_deg": "13.0372",
            "le_longitude_deg": "109.327",
            "le_elevation_ft": "",
            "le_heading_degT": "29.8",
            "le_displaced_threshold_ft": "",
            "he_ident": "21R",
            "he_latitude_deg": "13.0599",
            "he_longitude_deg": "109.341",
            "he_elevation_ft": "",
            "he_heading_degT": "209.8",
            "he_displaced_threshold_ft": ""
        },
        {
            "id": "246178",
            "airport_ref": "26707",
            "airport_ident": "VVTH",
            "length_ft": "9300",
            "width_ft": "150",
            "surface": "CON",
            "lighted": "0",
            "closed": "1",
            "le_ident": "03R",
            "le_latitude_deg": "13.0361",
            "le_longitude_deg": "109.33",
            "le_elevation_ft": "",
            "le_heading_degT": "29.9",
            "le_displaced_threshold_ft": "",
            "he_ident": "21L",
            "he_latitude_deg": "13.0583",
            "he_longitude_deg": "109.343",
            "he_elevation_ft": "",
            "he_heading_degT": "209.9",
            "he_displaced_threshold_ft": ""
        }
    ],
    "country": {
        "id": "302670",
        "code": "VN",
        "name": "Vietnam",
        "continent": "AS",
        "wikipedia_link": "https://en.wikipedia.org/wiki/Vietnam",
        "keywords": "Các sân bay của Việt Nam"
    },
    "region": {
        "id": "306232",
        "code": "VN-49",
        "local_code": "49",
        "name": "Vinh Long Province",
        "continent": "AS",
        "iso_country": "VN",
        "wikipedia_link": "https://en.wikipedia.org/wiki/Vinh_Long_Province",
        "keywords": ""
    }
}